{"type":"FeatureCollection","features":[{"type":"Feature","id":"0","geometry":{"type":"Point","coordinates":[-117.93367,34.34613]},"properties":{"NAME":"Mt. Waterman","TYPE":"Cross-Country","STATE":"CALIFORNIA","LAT":34.34613,"LONG":-117.93367}},{"type":"Feature","id":"15","geometry":{"type":"Point","coordinates":[-120.23907,39.1574]},"properties":{"NAME":"Alpine Meadows Ski Area","TYPE":"Both","STATE":"CALIFORNIA","LAT":39.1574,"LONG":-120.23907}},{"type":"Feature","id":"16","geometry":{"type":"Point","coordinates":[-119.6643,37.66243]},"properties":{"NAME":"Badger Pass Ski Area","TYPE":"Both","STATE":"CALIFORNIA","LAT":37.66243,"LONG":-119.6643}},{"type":"Feature","id":"17","geometry":{"type":"Point","coordinates":[-120.26461,38.56102]},"properties":{"NAME":"Bear River Resort Ski Area","TYPE":"Both","STATE":"CALIFORNIA","LAT":38.56102,"LONG":-120.26461}},{"type":"Feature","id":"18","geometry":{"type":"Point","coordinates":[-120.0446,38.49213]},"properties":{"NAME":"Bear Valley Ski Area","TYPE":"Both","STATE":"CALIFORNIA","LAT":38.49213,"LONG":-120.0446}},{"type":"Feature","id":"19","geometry":{"type":"Point","coordinates":[-118.84861,36.69889]},"properties":{"NAME":"Big Meadows Nordic Ski Trail","TYPE":"Alpine","STATE":"CALIFORNIA","LAT":36.69889,"LONG":-118.84861}},{"type":"Feature","id":"20","geometry":{"type":"Point","coordinates":[-117.69194,34.36917]},"properties":{"NAME":"Blue Ridge Ski Lift","TYPE":"Both","STATE":"CALIFORNIA","LAT":34.36917,"LONG":-117.69194}},{"type":"Feature","id":"21","geometry":{"type":"Point","coordinates":[-120.35101,39.33157]},"properties":{"NAME":"Boreal Ridge Ski Area","TYPE":"Both","STATE":"CALIFORNIA","LAT":39.33157,"LONG":-120.35101}},{"type":"Feature","id":"22","geometry":{"type":"Point","coordinates":[-120.0385,38.92908]},"properties":{"NAME":"Camp Richardson Cross Country Ski Ar","TYPE":"Alpine","STATE":"CALIFORNIA","LAT":38.92908,"LONG":-120.0385}},{"type":"Feature","id":"24","geometry":{"type":"Point","coordinates":[-119.15651,37.22716]},"properties":{"NAME":"Chinese Peak Ski Area","TYPE":"Both","STATE":"CALIFORNIA","LAT":37.22716,"LONG":-119.15651}},{"type":"Feature","id":"26","geometry":{"type":"Point","coordinates":[-120.90278,40.34528]},"properties":{"NAME":"Coppervale Ski Tow","TYPE":"Both","STATE":"CALIFORNIA","LAT":40.34528,"LONG":-120.90278}},{"type":"Feature","id":"27","geometry":{"type":"Point","coordinates":[-120.19907,39.18657]},"properties":{"NAME":"Deer Park Ski Area","TYPE":"Both","STATE":"CALIFORNIA","LAT":39.18657,"LONG":-120.19907}},{"type":"Feature","id":"28","geometry":{"type":"Point","coordinates":[-119.95016,38.18631]},"properties":{"NAME":"Dodge Ridge Ski Area","TYPE":"Both","STATE":"CALIFORNIA","LAT":38.18631,"LONG":-119.95016}},{"type":"Feature","id":"29","geometry":{"type":"Point","coordinates":[-120.3299,39.32351]},"properties":{"NAME":"Donner Summit Ski Area","TYPE":"Both","STATE":"CALIFORNIA","LAT":39.32351,"LONG":-120.3299}},{"type":"Feature","id":"30","geometry":{"type":"Point","coordinates":[-120.12046,39.9735]},"properties":{"NAME":"Eagles Peak Ski Area","TYPE":"Both","STATE":"CALIFORNIA","LAT":39.9735,"LONG":-120.12046}},{"type":"Feature","id":"31","geometry":{"type":"Point","coordinates":[-116.86447,34.22642]},"properties":{"NAME":"Gold Mine Ski Area","TYPE":"Both","STATE":"CALIFORNIA","LAT":34.22642,"LONG":-116.86447}},{"type":"Feature","id":"32","geometry":{"type":"Point","coordinates":[-120.15628,39.1549]},"properties":{"NAME":"Granlibakken Ski Area","TYPE":"Both","STATE":"CALIFORNIA","LAT":39.1549,"LONG":-120.15628}},{"type":"Feature","id":"33","geometry":{"type":"Point","coordinates":[-117.07222,34.23611]},"properties":{"NAME":"Green Valley Ski Area","TYPE":"Both","STATE":"CALIFORNIA","LAT":34.23611,"LONG":-117.07222}},{"type":"Feature","id":"34","geometry":{"type":"Point","coordinates":[-117.67833,34.36472]},"properties":{"NAME":"Holiday Hill Ski Lift","TYPE":"Alpine","STATE":"CALIFORNIA","LAT":34.36472,"LONG":-117.67833}},{"type":"Feature","id":"35","geometry":{"type":"Point","coordinates":[-120.16739,39.0799]},"properties":{"NAME":"Homewood Ski Area","TYPE":"Both","STATE":"CALIFORNIA","LAT":39.0799,"LONG":-120.16739}},{"type":"Feature","id":"36","geometry":{"type":"Point","coordinates":[-119.07263,37.75133]},"properties":{"NAME":"June Mountain Ski Area","TYPE":"Both","STATE":"CALIFORNIA","LAT":37.75133,"LONG":-119.07263}},{"type":"Feature","id":"37","geometry":{"type":"Point","coordinates":[-120.04294,38.67824]},"properties":{"NAME":"Kirkwood Ski Area","TYPE":"Both","STATE":"CALIFORNIA","LAT":38.67824,"LONG":-120.04294}},{"type":"Feature","id":"38","geometry":{"type":"Point","coordinates":[-117.89811,34.35113]},"properties":{"NAME":"Kratka Ridge Ski Area","TYPE":"Both","STATE":"CALIFORNIA","LAT":34.35113,"LONG":-117.89811}},{"type":"Feature","id":"39","geometry":{"type":"Point","coordinates":[-117.67977,34.36919]},"properties":{"NAME":"Mount High East Ski Area","TYPE":"Both","STATE":"CALIFORNIA","LAT":34.36919,"LONG":-117.67977}},{"type":"Feature","id":"40","geometry":{"type":"Point","coordinates":[-117.43059,34.36696]},"properties":{"NAME":"Mount High East Ski Area","TYPE":"Alpine","STATE":"CALIFORNIA","LAT":34.36696,"LONG":-117.43059}},{"type":"Feature","id":"41","geometry":{"type":"Point","coordinates":[-117.69199,34.37169]},"properties":{"NAME":"Mount High West Ski Area","TYPE":"Both","STATE":"CALIFORNIA","LAT":34.37169,"LONG":-117.69199}},{"type":"Feature","id":"42","geometry":{"type":"Point","coordinates":[-117.7406,34.35474]},"properties":{"NAME":"Mount High West Ski Area","TYPE":"Alpine","STATE":"CALIFORNIA","LAT":34.35474,"LONG":-117.7406}},{"type":"Feature","id":"43","geometry":{"type":"Point","coordinates":[-120.04905,38.49547]},"properties":{"NAME":"Mount Reba Ski Area","TYPE":"Both","STATE":"CALIFORNIA","LAT":38.49547,"LONG":-120.04905}},{"type":"Feature","id":"45","geometry":{"type":"Point","coordinates":[-117.93367,34.34613]},"properties":{"NAME":"Mount Waterman Ski Area","TYPE":"Alpine","STATE":"CALIFORNIA","LAT":34.34613,"LONG":-117.93367}},{"type":"Feature","id":"46","geometry":{"type":"Point","coordinates":[-120.12268,39.25573]},"properties":{"NAME":"North Star Ski Area","TYPE":"Both","STATE":"CALIFORNIA","LAT":39.25573,"LONG":-120.12268}},{"type":"Feature","id":"47","geometry":{"type":"Point","coordinates":[-120.1024,39.27323]},"properties":{"NAME":"Northstar-at-Tahoe Ski Area","TYPE":"Alpine","STATE":"CALIFORNIA","LAT":39.27323,"LONG":-120.1024}},{"type":"Feature","id":"48","geometry":{"type":"Point","coordinates":[-120.20212,39.18157]},"properties":{"NAME":"Powder Bowl Ski Area","TYPE":"Both","STATE":"CALIFORNIA","LAT":39.18157,"LONG":-120.20212}},{"type":"Feature","id":"49","geometry":{"type":"Point","coordinates":[-118.55925,35.70915]},"properties":{"NAME":"Shirley Meadow Ski Area","TYPE":"Both","STATE":"CALIFORNIA","LAT":35.70915,"LONG":-118.55925}},{"type":"Feature","id":"50","geometry":{"type":"Point","coordinates":[-120.07806,38.79694]},"properties":{"NAME":"Sierra Ski Ranch","TYPE":"Both","STATE":"CALIFORNIA","LAT":38.79694,"LONG":-120.07806}},{"type":"Feature","id":"51","geometry":{"type":"Point","coordinates":[-120.20767,38.63241]},"properties":{"NAME":"Silver Basin Ski Area","TYPE":"Both","STATE":"CALIFORNIA","LAT":38.63241,"LONG":-120.20767}},{"type":"Feature","id":"52","geometry":{"type":"Point","coordinates":[-120.035,38.80667]},"properties":{"NAME":"Ski Echo Tahoe","TYPE":"Both","STATE":"CALIFORNIA","LAT":38.80667,"LONG":-120.035}},{"type":"Feature","id":"53","geometry":{"type":"Point","coordinates":[-121.52111,40.47278]},"properties":{"NAME":"Ski Heil Peak","TYPE":"Both","STATE":"CALIFORNIA","LAT":40.47278,"LONG":-121.52111}},{"type":"Feature","id":"54","geometry":{"type":"Point","coordinates":[-116.91667,34.23444]},"properties":{"NAME":"Snow Forest Ski Area","TYPE":"Alpine","STATE":"CALIFORNIA","LAT":34.23444,"LONG":-116.91667}},{"type":"Feature","id":"55","geometry":{"type":"Point","coordinates":[-116.89028,34.22861]},"properties":{"NAME":"Snow Summit Ski Area","TYPE":"Both","STATE":"CALIFORNIA","LAT":34.22861,"LONG":-116.89028}},{"type":"Feature","id":"56","geometry":{"type":"Point","coordinates":[-117.03472,34.21722]},"properties":{"NAME":"Snow Valley Ski Area","TYPE":"Alpine","STATE":"CALIFORNIA","LAT":34.21722,"LONG":-117.03472}},{"type":"Feature","id":"57","geometry":{"type":"Point","coordinates":[-120.38351,39.31907]},"properties":{"NAME":"Soda Springs Ski Area","TYPE":"Both","STATE":"CALIFORNIA","LAT":39.31907,"LONG":-120.38351}},{"type":"Feature","id":"58","geometry":{"type":"Point","coordinates":[-120.25184,39.19129]},"properties":{"NAME":"Squaw Valley Ski Area","TYPE":"Both","STATE":"CALIFORNIA","LAT":39.19129,"LONG":-120.25184}},{"type":"Feature","id":"59","geometry":{"type":"Point","coordinates":[-121.28938,40.28931]},"properties":{"NAME":"Stover Mountain Ski Area","TYPE":"Both","STATE":"CALIFORNIA","LAT":40.28931,"LONG":-121.28938}},{"type":"Feature","id":"60","geometry":{"type":"Point","coordinates":[-120.33573,39.30434]},"properties":{"NAME":"Sugar Bowl Ski Area","TYPE":"Both","STATE":"CALIFORNIA","LAT":39.30434,"LONG":-120.33573}},{"type":"Feature","id":"61","geometry":{"type":"Point","coordinates":[-117.68421,34.38835]},"properties":{"NAME":"Sunrise Ski Area","TYPE":"Both","STATE":"CALIFORNIA","LAT":34.38835,"LONG":-117.68421}},{"type":"Feature","id":"62","geometry":{"type":"Point","coordinates":[-120.27157,39.3524]},"properties":{"NAME":"Tahoe Donner Ski Area","TYPE":"Both","STATE":"CALIFORNIA","LAT":39.3524,"LONG":-120.27157}},{"type":"Feature","id":"63","geometry":{"type":"Point","coordinates":[-120.15917,39.065]},"properties":{"NAME":"Tahoe Ski Bowl Area","TYPE":"Both","STATE":"CALIFORNIA","LAT":39.065,"LONG":-120.15917}},{"type":"Feature","id":"64","geometry":{"type":"Point","coordinates":[-119.00556,37.61861]},"properties":{"NAME":"Tamarack Cross Country Ski Center","TYPE":"Alpine","STATE":"CALIFORNIA","LAT":37.61861,"LONG":-119.00556}},{"type":"Feature","id":"320","geometry":{"type":"Point","coordinates":[-119.90878,38.93769]},"properties":{"NAME":"Heavenly Valley Ski Area","TYPE":"Both","STATE":"NEVADA","LAT":38.93769,"LONG":-119.90878}},{"type":"Feature","id":"321","geometry":{"type":"Point","coordinates":[-119.9235,39.25379]},"properties":{"NAME":"Incline Ski Area","TYPE":"Both","STATE":"NEVADA","LAT":39.25379,"LONG":-119.9235}},{"type":"Feature","id":"322","geometry":{"type":"Point","coordinates":[-115.67974,36.3036]},"properties":{"NAME":"Lee Canyon Ski Area","TYPE":"Both","STATE":"NEVADA","LAT":36.3036,"LONG":-115.67974}},{"type":"Feature","id":"323","geometry":{"type":"Point","coordinates":[-119.88572,39.32907]},"properties":{"NAME":"Mount Rose Ski Area","TYPE":"Both","STATE":"NEVADA","LAT":39.32907,"LONG":-119.88572}},{"type":"Feature","id":"324","geometry":{"type":"Point","coordinates":[-115.67752,36.32055]},"properties":{"NAME":"Old Mill Cross Country Ski Area","TYPE":"Alpine","STATE":"NEVADA","LAT":36.32055,"LONG":-115.67752}},{"type":"Feature","id":"325","geometry":{"type":"Point","coordinates":[-119.8735,39.33657]},"properties":{"NAME":"Sky Tavern Ski Area","TYPE":"Both","STATE":"NEVADA","LAT":39.33657,"LONG":-119.8735}},{"type":"Feature","id":"326","geometry":{"type":"Point","coordinates":[-119.901,39.33796]},"properties":{"NAME":"Sky Tavern Ski Area","TYPE":"Alpine","STATE":"NEVADA","LAT":39.33796,"LONG":-119.901}},{"type":"Feature","id":"327","geometry":{"type":"Point","coordinates":[-119.87128,39.31879]},"properties":{"NAME":"Slide Mountain Ski Area","TYPE":"Both","STATE":"NEVADA","LAT":39.31879,"LONG":-119.87128}},{"type":"Feature","id":"544","geometry":{"type":"Point","coordinates":[-112.838,37.69192]},"properties":{"NAME":"Brian Head Ski Area","TYPE":"Both","STATE":"UTAH","LAT":37.69192,"LONG":-112.838}},{"type":"Feature","id":"547","geometry":{"type":"Point","coordinates":[-112.93272,37.5972]},"properties":{"NAME":"Cedar Canyon Ski Area","TYPE":"Both","STATE":"UTAH","LAT":37.5972,"LONG":-112.93272}}],"name":"ski_areas.geojson","sha":"0a318706a6cb299ff283a456416c109e7aa403bd"}